"ville","latitude","longitude","montant_total_courses"
"Nice","43.710200","7.262000","270.00"
"Dijon","47.322000","5.041500","215.00"
"Strasbourg","48.573400","7.752100","120.00"
"Bordeaux","44.837800","-0.579200","110.00"
"Versailles","48.801400","2.130100","85.00"
"Paris","48.856600","2.352200","80.00"
"Lyon","45.764000","4.835700","70.00"
"Marseille","43.296500","5.369800","35.00"
"Montpellier","43.611700","3.877200","25.00"
